[{"name":"Central Warehouse-1","adr":{"zip":"72756","country":"USA","addr2":"","addr1":"1819 S 12th St","city":"Rogers","state":"AR"},"affiliate":"Walmart","id":10,"location":{"latitude":36.315127,"longitude":-94.12623},"phone":"479-633-0769","site_type":"warehouse"},{"name":"Pleasant","adr":{"zip":"72764","country":"USA","addr2":"","addr1":"2004 S Pleasant St","city":"Springdale","state":"AR"},"affiliate":"Walmart","id":9,"inventory":[],"location":{"latitude":36.166199,"longitude":-94.146317},"phone":"479-751-4817","site_type":"store"},{"name":"Market 2","adr":{"zip":"72712","country":"USA","addr2":"","addr1":"SW Regional Airport Blvd","city":"Bentonville","state":"AR"},"affiliate":"Walmart","id":8,"location":{"latitude":36.322088,"longitude":-94.259405},"phone":"479-268-7678","site_type":"store"},{"name":"Medical","adr":{"zip":"72756","country":"USA","addr2":"Suite #110","addr1":"2708 SE Medical Center Pkwy","city":"Rogers","state":"AR"},"affiliate":"Walmart","id":7,"location":{"latitude":36.340404,"longitude":-94.189356},"phone":"479-636-4101","site_type":"store"},{"name":"Market 1","adr":{"zip":"72756","country":"USA","addr2":"","addr1":"1819 S 8th St","city":"Rogers","state":"AR"},"affiliate":"Walmart","id":6,"location":{"latitude":36.313118,"longitude":-94.12414},"phone":"479-633-0772","site_type":"store"},{"name":"Mall","adr":{"zip":"72703","country":"USA","addr2":"","addr1":"3919 Mall Ave","city":"Fayetteville","state":"AR"},"affiliate":"Walmart","id":5,"location":{"latitude":32.677649,"longitude":-97.465539},"phone":"479-443-7679","site_type":"store"},{"name":"Benbrook","adr":{"zip":"76126","country":"USA","addr2":"","addr1":"8840 Benbrook Blvd","city":"Benbrook","state":"TX"},"affiliate":"Walmart","id":4,"location":{"latitude":32.677649,"longitude":-97.465539},"phone":"682-233-6820","site_type":"store"},{"name":"Showers","adr":{"zip":"94040","country":"USA","addr2":"","addr1":"600 Showers Dr","city":"Mountain View","state":"CA"},"affiliate":"Walmart","id":3,"location":{"latitude":37.400998,"longitude":-122.109596},"phone":"650-917-0796","site_type":"store"},{"name":"Warner","adr":{"zip":"85224","country":"USA","addr2":"","addr1":"800 W Warner Rd","city":"Chandler","state":"AZ"},"affiliate":"Walmart","id":2,"location":{"latitude":33.337525,"longitude":-111.854406},"phone":"480-786-0062","site_type":"store"},{"name":"Riverpoint","adr":{"zip":"95605","country":"USA","addr2":"Suite 1","addr1":"755 Riverpoint Ct","city":"West Sacramento","state":"CA"},"affiliate":"Walmart","id":1,"location":{"latitude":38.587595,"longitude":-121.550184},"phone":"916-373-2200","site_type":"store"}]